{"name": "Report Fast Demo Model", "description": "This model was generated u sing the 4_python_demo_fast.py Script", "allocator": "PriorityAllocator", "map": {"coordinates": {"long": 8.5418701171875, "lat": 47.372314489355475}, "locationName": "-", "neighbouringTiles": 0, "subselection": {"bottomLeft": {"long": 8.536376953125, "lat": 47.368594345213374}, "topRight": {"long": 8.54736328125, "lat": 47.376034633497575}}, "resolution": 5, "height": 100, "timesteps": 5000, "bottomLeftCoordinate": {"long": 8.536376953125, "lat": 47.368594345213374}, "topRightCoordinate": {"long": 8.54736328125, "lat": 47.376034633497575}, "tiles": [[15, 17161, 11475]], "minHeight": 50, "allocationPeriod": 500}, "owners": [{"color": "#e53935", "name": "OwnerA", "agents": 10, "biddingStrategy": {"minLocations": 2, "maxLocations": 10, "allocationType": "path", "classname": "PriorityPathBiddingStrategy", "meta": [{"key": "near_field", "label": "Near field size", "description": "Radius of reserved field", "type": "int", "value": 1, "range": "1-3"}, {"key": "battery", "label": "Battery capacity", "description": "Maximum flight time", "type": "int", "value": 5000, "range": "500-2000"}, {"key": "speed", "label": "Ticks per voxel", "description": "Number ticks needed to traverse a voxel: 1 is the fastest", "type": "int", "value": 1, "range": "1-3"}, {"key": "priority", "label": "Priority", "description": "Priority of the agents", "type": "float", "value": 0.5, "range": "0-1"}]}, "locations": [{"type": "position", "points": [{"lat": 47.37115732474905, "long": 8.540759046627224, "value": 1.0}]}, {"type": "position", "points": [{"lat": 47.370347748475616, "long": 8.544277879227273, "value": 1.0}]}], "valueFunction": "PriorityPathValueFunction"}, {"color": "#43a047", "name": "OwnerB", "agents": 17, "biddingStrategy": {"minLocations": 1, "maxLocations": 4, "allocationType": "space", "classname": "PrioritySpaceBiddingStrategy", "meta": [{"key": "size_x", "label": "Field Size X", "description": "Size of reserved field in X-Dimension", "type": "int", "value": 3, "range": "1-50"}, {"key": "size_y", "label": "Field Size Y", "description": "Size of reserved field in Y-Dimension", "type": "int", "value": 10, "range": "1-50"}, {"key": "size_z", "label": "Field Size Z", "description": "Size of reserved field in Z-Dimension", "type": "int", "value": 3, "range": "1-50"}, {"key": "size_t", "label": "Field Size T", "description": "Size of reserved field in T-Dimension", "type": "int", "value": 100, "range": "1-100"}, {"key": "priority", "label": "Priority", "description": "Priority of the agents", "type": "float", "value": 1.0, "range": "0-1"}]}, "locations": [{"type": "heatmap", "points": [{"lat": 47.370932446103645, "long": 8.541887744184784, "value": 0.2}, {"lat": 47.370887456872005, "long": 8.542352504599341, "value": 0.5}, {"lat": 47.3707525107234, "long": 8.54321562231623, "value": 0.3}, {"lat": 47.37048266886047, "long": 8.543945926903998, "value": 0.3}, {"lat": 47.36998805560339, "long": 8.543746674268354, "value": 0.2}]}], "valueFunction": "PrioritySpaceValueFunction"}, {"color": "#1e88e5", "name": "OwnerC", "agents": 50, "biddingStrategy": {"minLocations": 2, "maxLocations": 10, "allocationType": "path", "classname": "PriorityPathBiddingStrategy", "meta": [{"key": "near_field", "label": "Near field size", "description": "Radius of reserved field", "type": "int", "value": 2, "range": "1-3"}, {"key": "battery", "label": "Battery capacity", "description": "Maximum flight time", "type": "int", "value": 10000, "range": "500-2000"}, {"key": "speed", "label": "Ticks per voxel", "description": "Number ticks needed to traverse a voxel: 1 is the fastest", "type": "int", "value": 1, "range": "1-3"}, {"key": "priority", "label": "Priority", "description": "Priority of the agents", "type": "float", "value": 0.15, "range": "0-1"}]}, "locations": [{"type": "position", "points": [{"lat": 47.36994321793693, "long": 8.541356490200743, "value": 1.0}]}, {"type": "random", "points": []}], "valueFunction": "PriorityPathValueFunction"}], "paymentRule": "PriorityPaymentRule"}