{"name": "Report Comparison Model PriorityAllocator", "description": "This model was generated using the 6_python_demo_comparison.py Script", "allocator": "PriorityAllocator", "map": {"coordinates": {"long": 7.452938294362478, "lat": 46.94789238958412}, "locationName": "-", "neighbouringTiles": 0, "subselection": {"bottomLeft": {"long": 7.4461710774213765, "lat": 46.944598524881215}, "topRight": {"long": 7.4597055113035795, "lat": 46.95118625428702}}, "resolution": 1, "height": 100, "timesteps": 4000, "bottomLeftCoordinate": {"long": 7.4461710774213765, "lat": 46.944598524881215}, "topRightCoordinate": {"long": 7.4597055113035795, "lat": 46.95118625428702}, "tiles": [[15, 17061, 11531], [15, 17062, 11531], [15, 17063, 11531], [15, 17061, 11532], [15, 17062, 11532], [15, 17063, 11532], [15, 17061, 11533], [15, 17062, 11533], [15, 17063, 11533]], "minHeight": 0, "allocationPeriod": 1000}, "owners": [{"color": "#e53935", "name": "OwnerA", "agents": 10, "biddingStrategy": {"minLocations": 2, "maxLocations": 10, "allocationType": "path", "classname": "PriorityPathBiddingStrategy", "meta": [{"key": "near_field", "label": "Near field size", "description": "Radius of reserved field", "type": "int", "value": 5, "range": "1-3"}, {"key": "battery", "label": "Battery capacity", "description": "Maximum flight time", "type": "int", "value": 5000, "range": "500-2000"}, {"key": "speed", "label": "Ticks per voxel", "description": "Number ticks needed to traverse a voxel: 1 is the fastest", "type": "int", "value": 1, "range": "1-3"}, {"key": "priority", "label": "Priority", "description": "Priority of the agents", "type": "float", "value": 0.5, "range": "0-1"}]}, "locations": [{"type": "position", "points": [{"lat": 46.94813283103725, "long": 7.448463312371261, "value": 1.0}]}, {"type": "random", "points": []}], "valueFunction": "PriorityPathValueFunction"}, {"color": "#43a047", "name": "OwnerB", "agents": 10, "biddingStrategy": {"minLocations": 2, "maxLocations": 10, "allocationType": "path", "classname": "PriorityPathBiddingStrategy", "meta": [{"key": "near_field", "label": "Near field size", "description": "Radius of reserved field", "type": "int", "value": 10, "range": "1-3"}, {"key": "battery", "label": "Battery capacity", "description": "Maximum flight time", "type": "int", "value": 5000, "range": "500-2000"}, {"key": "speed", "label": "Ticks per voxel", "description": "Number ticks needed to traverse a voxel: 1 is the fastest", "type": "int", "value": 1, "range": "1-3"}, {"key": "priority", "label": "Priority", "description": "Priority of the agents", "type": "float", "value": 0.3, "range": "0-1"}]}, "locations": [{"type": "position", "points": [{"lat": 46.94690963394583, "long": 7.451927880773758, "value": 1.0}]}, {"type": "random", "points": []}], "valueFunction": "PriorityPathValueFunction"}, {"color": "#1e88e5", "name": "OwnerB", "agents": 17, "biddingStrategy": {"minLocations": 1, "maxLocations": 4, "allocationType": "space", "classname": "PrioritySpaceBiddingStrategy", "meta": [{"key": "size_x", "label": "Field Size X", "description": "Size of reserved field in X-Dimension", "type": "int", "value": 15, "range": "1-50"}, {"key": "size_y", "label": "Field Size Y", "description": "Size of reserved field in Y-Dimension", "type": "int", "value": 50, "range": "1-50"}, {"key": "size_z", "label": "Field Size Z", "description": "Size of reserved field in Z-Dimension", "type": "int", "value": 15, "range": "1-50"}, {"key": "size_t", "label": "Field Size T", "description": "Size of reserved field in T-Dimension", "type": "int", "value": 100, "range": "1-100"}, {"key": "priority", "label": "Priority", "description": "Priority of the agents", "type": "float", "value": 1.0, "range": "0-1"}]}, "locations": [{"type": "heatmap", "points": [{"lat": 46.94823175858222, "long": 7.448344752511916, "value": 0.2}, {"lat": 46.94746694090226, "long": 7.45594588879017, "value": 0.5}, {"lat": 46.94823165461728, "long": 7.451519635516022, "value": 0.3}, {"lat": 46.94662193476753, "long": 7.449912320817355, "value": 0.3}, {"lat": 46.949148775491636, "long": 7.454615620493023, "value": 0.2}]}], "valueFunction": "PrioritySpaceValueFunction"}], "paymentRule": "PriorityPaymentRule"}